{
  "$schema": "https://vega.github.io/schema/vega-lite/v5.json",
  "config": {"view": {"stroke": ""}},
  "width": 70,
  "height": 200,
  "data": {
    "values": [
      {"Location": "#1 Texas", "State":"Texas", "animal": "dog", "value": 7163},
      {"Location": "#1 Texas", "State":"Texas", "animal": "dog", "value": 7163},
      {"Location": "#1 Texas", "State":"Texas", "animal": "dog", "value": 7163},
      {"Location": "#1 Texas", "State":"Texas", "animal": "dog", "value": 7163},
      {"Location": "#1 Texas", "State":"Texas", "animal": "dog", "value": 7163},
      {"Location": "#1 Texas", "State":"Texas", "animal": "dog", "value": 7163},
      {"Location": "#1 Texas", "State":"Texas", "animal": "dog", "value": 7163},
      {"Location": "#1 Texas", "State":"Texas", "animal": "dog", "value": 7163},
      {"Location": "#1 Texas", "State":"Texas", "animal": "dog", "value": 7163},
      {"Location": "#1 Texas", "State":"Texas", "animal": "dog", "value": 7163},


      {"Location": "#2 California", "State":"California", "animal": "dog","value":6687},
      {"Location": "#2 California", "State":"California", "animal": "dog","value":6687},
      {"Location": "#2 California", "State":"California", "animal": "dog","value":6687},
      {"Location": "#2 California", "State":"California", "animal": "dog","value":6687},
      {"Location": "#2 California", "State":"California", "animal": "dog","value":6687},
      {"Location": "#2 California", "State":"California", "animal": "dog","value":6687},
      {"Location": "#2 California", "State":"California", "animal": "dog","value":6687},
      {"Location": "#2 California", "State":"California", "animal": "dog","value":6687},
      {"Location": "#2 California", "State":"California", "animal": "dog","value":6687},


      {"Location": "#3 Florida", "State":"Florida", "animal": "dog", "value":4210},
      {"Location": "#3 Florida", "State":"Florida", "animal": "dog", "value":4210},
      {"Location": "#3 Florida", "State":"Florida", "animal": "dog", "value":4210},
      {"Location": "#3 Florida", "State":"Florida", "animal": "dog", "value":4210},
      {"Location": "#3 Florida", "State":"Florida", "animal": "dog", "value":4210},
      {"Location": "#3 Florida", "State":"Florida", "animal": "dog", "value":4210},


      
      {"Location": "#4 New York", "State":"New York", "animal": "dog","value":3054},
      {"Location": "#4 New York", "State":"New York", "animal": "dog","value":3054},
      {"Location": "#4 New York", "State":"New York", "animal": "dog","value":3054},
      {"Location": "#4 New York", "State":"New York", "animal": "dog","value":3054},


      {"Location": "#5 Ohio", "State":"Ohio", "animal": "dog","value":2730},
      {"Location": "#5 Ohio", "State":"Ohio", "animal": "dog","value":2730},
      {"Location": "#5 Ohio", "State":"Ohio", "animal": "dog","value":2730},
      {"Location": "#5 Ohio", "State":"Ohio", "animal": "dog","value":2730},


      {"Location": "#6 North Carolina", "State":"North Carolina", "animal": "dog","value":2518},
      {"Location": "#6 North Carolina", "State":"North Carolina", "animal": "dog","value":2518},
      {"Location": "#6 North Carolina", "State":"North Carolina", "animal": "dog","value":2518},
      {"Location": "#6 North Carolina", "State":"North Carolina", "animal": "dog","value":2518},


      {"Location": "#7 Pennsylvania", "State":"Pennsylvania", "animal": "dog","value":2485},
      {"Location": "#7 Pennsylvania", "State":"Pennsylvania", "animal": "dog","value":2485},
      {"Location": "#7 Pennsylvania", "State":"Pennsylvania", "animal": "dog","value":2485},


      {"Location": "#8 Georgia", "State":"Georgia", "animal": "dog","value":2479},
      {"Location": "#8 Georgia", "State":"Georgia", "animal": "dog","value":2479},
      {"Location": "#8 Georgia", "State":"Georgia", "animal": "dog","value":2479},


      {"Location": "#9 Illinois", "State":"Illinois", "animal": "dog","value":2365},
      {"Location": "#9 Illinois", "State":"Illinois", "animal": "dog","value":2365},
      {"Location": "#9 Illinois", "State":"Illinois", "animal": "dog","value":2365}
    ]
  },

  "transform": [
    {"calculate": "{'dog': 'ðŸ¦´'}[datum.animal]","as": "emoji"},
    {"window": [{"op": "rank", "as": "rank"}], "groupby": ["Location", "animal"]}
  ],

  "mark": {"type": "text", "baseline": "bottom"},
  "encoding": {
    "x": {"field": "animal", "type": "nominal", "axis": null, "sort": "descending"},
    "y": {"field": "rank", "type": "quantitative", "axis": null},
    
    "column": {"field": "Location", "header": {"title": "Number of Pet Dogs in Thousands"}},
    "text": {"field": "emoji", "type": "ordinal"},
    "size": {"value": 20},

    "tooltip": [
      {"field": "State", "type": "nominal", "title": "State"},

      {
        "field": "value",
        "type": "quantitative",
        "format": ",",
        "title": "Number of Pet Dogs (1000s)"
      }
    ]
  }


}
